{
  "usuarios": [
    { "id": 1, "login": "admin", "senha": "123", "nome": "Administrador do Sistema", "email": "admin@abc.com", "cidadeId": 1, "bairroId": 1 },
    { "id": 2, "login": "user", "senha": "123", "nome": "Usuario Comum", "email": "user@abc.com", "cidadeId": 1, "bairroId": 2 },
    { "id": 3, "login": "joaozinho", "senha": "123", "nome": "Joãozinho", "email": "joaozinho@gmail.com", "cidadeId": 1, "bairroId": 1 },
    { "id": 4, "login": "rommel", "senha": "123", "nome": "Rommel", "email": "rommel@gmail.com", "cidadeId": 1, "bairroId": 3 },
    { "id": 5, "login": "maria.silva", "senha": "456", "nome": "Maria Silva", "email": "maria.silva@email.com", "cidadeId": 1, "bairroId": 2 },
    { "id": 6, "login": "carlos.santos", "senha": "789", "nome": "Carlos Santos", "email": "carlos.santos@email.com", "cidadeId": 1, "bairroId": 4 },
    { "id": 7, "login": "ana.costa", "senha": "321", "nome": "Ana Costa", "email": "ana.costa@email.com", "cidadeId": 1, "bairroId": 1 },
    { "id": 8, "login": "pedro.oliveira", "senha": "654", "nome": "Pedro Oliveira", "email": "pedro.oliveira@email.com", "cidadeId": 1, "bairroId": 3 },
    { "id": 9, "login": "lucia.ferreira", "senha": "987", "nome": "Lúcia Ferreira", "email": "lucia.ferreira@email.com", "cidadeId": 1, "bairroId": 2 },
    { "id": 10, "login": "bruno.alves", "senha": "147", "nome": "Bruno Alves", "email": "bruno.alves@email.com", "cidadeId": 1, "bairroId": 4 }
  ],
  "cidades": [
    { "id": 1, "nome": "Belo Horizonte", "uf": "MG", "lat": -19.9191, "lng": -43.9386 },
    { "id": 2, "nome": "Contagem", "uf": "MG", "lat": -19.9317, "lng": -44.0536 },
    { "id": 3, "nome": "Betim", "uf": "MG", "lat": -19.9677, "lng": -44.1987 }
  ],
  "bairros": [
    { "id": 1, "nome": "Savassi", "cidadeId": 1, "lat": -19.9366, "lng": -43.9332, "raio": 800 },
    { "id": 2, "nome": "Funcionários", "cidadeId": 1, "lat": -19.9295, "lng": -43.9222, "raio": 800 },
    { "id": 3, "nome": "Lourdes", "cidadeId": 1, "lat": -19.9290, "lng": -43.9405, "raio": 800 },
    { "id": 4, "nome": "Santo Antônio", "cidadeId": 1, "lat": -19.9540, "lng": -43.9500, "raio": 800 },
    { "id": 5, "nome": "Centro", "cidadeId": 1, "lat": -19.9245, "lng": -43.9352, "raio": 1000 },
    { "id": 6, "nome": "Pampulha", "cidadeId": 1, "lat": -19.8626, "lng": -43.9653, "raio": 1200 },
    { "id": 7, "nome": "Cidade Industrial", "cidadeId": 2, "lat": -19.9500, "lng": -44.0800, "raio": 1500 },
    { "id": 8, "nome": "Eldorado", "cidadeId": 2, "lat": -19.9200, "lng": -44.0400, "raio": 900 }
  ],
  "cidadaos": [
    {
      "id": 1,
      "login": "joaozinho",
      "senha": "123",
      "nome": "Joao Pedro",
      "email": "joaozinho@gmai.com"
    },
    {
      "id": 2,
      "login": "Maria00",
      "senha": "123",
      "nome": "Maria Luiza",
      "email": "marialuiza@gmail.com"
    }
  ],
  "denuncias": [
    {
      "id": 1,
      "descricao": "Poste de luz queimado",
      "latitude": -23.55052,
      "longitude": -46.633308
    },
    {
      "id": 2,
      "descricao": "Buraco na rua",
      "latitude": -23.55152,
      "longitude": -46.634308
    }
  ]
}
